{
  "caches": {
    "cache0": {
      "name": "It's not the kind of mall you think it is.",
      "city": "Nashville",
      "state": "TN",
      "latitude": "36.170702",
      "longitude": "-86.787422",
      "description": "Memorials.",
      "hiddenBy": "EWgYtm2ZLkRbhPyUiLN1PviE4Wg2",
      "dateHidden": "4/23/2017"
    },
    "cache1": {
      "name": "Where the wild things are",
      "city": "Nashville",
      "state": "TN",
      "latitude": "36.089102",
      "longitude": "-86.740642",
      "description": "Close to the best animal exhibit (the anteater...duh).",
      "hiddenBy": "MYUnvsyUrvgrbgypTAEKs50BRvq2",
      "dateHidden": "1/05/2017"
    },
    "cache2": {
      "name": "It's international af",
      "city": "Nashville",
      "state": "TN",
      "latitude": "36.128270",
      "longitude": "-86.678059",
      "description": "Tootsie's back corner.",
      "hiddenBy": "EWgYtm2ZLkRbhPyUiLN1PviE4Wg2",
      "dateHidden": "5/13/2017"
    },
    "cache3": {
      "name": "One of many golf courses",
      "city": "Nashville",
      "state": "TN",
      "latitude": "36.083472",
      "longitude": "-86.870167",
      "description": "Hole 9.",
      "hiddenBy": "EWgYtm2ZLkRbhPyUiLN1PviE4Wg2",
      "dateHidden": "12/22/2017"
    },
    "cache4": {
      "name": "Home of MTSU",
      "city": "Murfreesboro",
      "state": "TN",
      "latitude": "35.840082",
      "longitude": "-86.380005",
      "description": "Dirty Jim's.",
      "hiddenBy": "EWgYtm2ZLkRbhPyUiLN1PviE4Wg2",
      "dateHidden": "11/23/2017"
    },
    "cache5": {
      "name": "Stashed in the corner next to the metal",
      "city": "Franklin",
      "state": "TN",
      "latitude": "35.9024",
      "longitude": "-86.87439",
      "description": "Read the name, silly.",
      "hiddenBy": "EWgYtm2ZLkRbhPyUiLN1PviE4Wg2",
      "dateHidden": "6/12/2017"
    },
    "cache6": {
      "name": "Possibly 'Fake' news",
      "city": "Shelbyville",
      "state": "TN",
      "latitude": "35.482138",
      "longitude": "-86.45618",
      "description": "There's a Shell Station off the first exit, check behind that building.",
      "hiddenBy": "EWgYtm2ZLkRbhPyUiLN1PviE4Wg2",
      "dateHidden": "10/31/2017"
    },
    "cache7": {
      "name": "Adopt a fish!",
      "city": "Chattanooga",
      "state": "TN",
      "latitude": "35.055856",
      "longitude": "-85.311069",
      "description": "Family bathroom where diapers are changed.",
      "hiddenBy": "EWgYtm2ZLkRbhPyUiLN1PviE4Wg2",
      "dateHidden": "9/01/2017"
    },
    "cache8": {
      "name": "Good ole Rocky Top",
      "city": "Knoxville",
      "state": "TN",
      "latitude": "35.95503",
      "longitude": "-83.925033",
      "description": "AHHHHH!",
      "hiddenBy": "EWgYtm2ZLkRbhPyUiLN1PviE4Wg2",
      "dateHidden": "3/22/2017"
    },
    "cache9": {
      "name": "Memphis has an airport?",
      "city": "Memphis",
      "state": "TN",
      "latitude": "35.042084",
      "longitude": "-89.979401",
      "description": "Check in the lady's bathroom in terminal A.",
      "hiddenBy": "EWgYtm2ZLkRbhPyUiLN1PviE4Wg2",
      "dateHidden": "4/15/2017"
    },
    "cache10": {
      "name": "The only thing french about this place are the fries",
      "city": "Paris",
      "state": "TN",
      "latitude": "36.292991",
      "longitude": "-88.308105",
      "description": "Where four wheelers are sold.",
      "hiddenBy": "EWgYtm2ZLkRbhPyUiLN1PviE4Wg2",
      "dateHidden": "4/22/2017"
    },
    "cache11": {
      "name": "One melting pot of a town",
      "city": "Clarksville",
      "state": "TN",
      "latitude": "36.491973",
      "longitude": "-87.341309",
      "description": "In the bathroom of the place that serves the best burgers, aaaaalmost 24/7.",
      "hiddenBy": "EWgYtm2ZLkRbhPyUiLN1PviE4Wg2",
      "dateHidden": "7/26/2017"
    },
    "cache12": {
      "name": "I think Taylor Swift grew up here?",
      "city": "Hendersonville",
      "state": "TN",
      "latitude": "36.290777",
      "longitude": "-86.635437",
      "description": "Behind the dumpster.",
      "hiddenBy": "EWgYtm2ZLkRbhPyUiLN1PviE4Wg2",
      "dateHidden": "6/13/2017"
    },
    "cache13": {
      "name": "The only white they're pushing here are the people",
      "city": "Columbia",
      "state": "TN",
      "latitude": "35.599252",
      "longitude": "87.044678",
      "description": "Talk to the homeless guy sitting under the light pole.",
      "hiddenBy": "EWgYtm2ZLkRbhPyUiLN1PviE4Wg2",
      "dateHidden": "5/03/2017"
    },
    "cache14": {
      "name": "Bluegrass cave action",
      "city": "McMinnville",
      "state": "TN",
      "latitude": "35.677379",
      "longitude": "-85.77301",
      "description": "Hidden in a hole...there are many holes.",
      "hiddenBy": "EWgYtm2ZLkRbhPyUiLN1PviE4Wg2",
      "dateHidden": "2/14/2017"
    }
  },
  "badges": {
    "badge0": {
      "achievement": "First Find",
      "description": "You found your first cache!!!",
      "icon": "https://i.imgur.com/bWcLHws.png"
    },
    "badge1": {
      "achievement": "First Hide",
      "description": "You hid your first cache!",
      "icon": "https://i.imgur.com/1EJUvil.png"
    },
    "badge2": {
      "achievement": "5 Finds",
      "description": "You've found 5 caches!",
      "icon": "https://i.imgur.com/X5UylIq.png"
    },
    "badge3": {
      "achievement": "5 Hides",
      "description": "You've hidden 5 caches!",
      "icon": "https://i.imgur.com/I1D1QJm.png"
    },
    "badge4": {
      "achievement": "Traveller",
      "description": "You've, found caches in 3 or more cities!",
      "icon": "https://i.imgur.com/ze0QFMO.png"
    }
  },
  "foundBy": {
    "foundBy0": {
      "cacheId": "cache0",
      "uid": "MYUnvsyUrvgrbgypTAEKs50BRvq2",
      "comment": "i found dis",
      "dateFound": "2/15/2017"
    },
    "foundBy1": {
      "cacheId": "cache1",
      "uid": "EWgYtm2ZLkRbhPyUiLN1PviE4Wg2",
      "comment": "this shit was hard af to find",
      "dateFound": "5/09/2017"
    },
    "foundBy2": {
      "cacheId": "cache2",
      "uid": "MYUnvsyUrvgrbgypTAEKs50BRvq2",
      "comment": "i almost didn't find dis.",
      "dateFound": "10/23/2017"
    },
    "foundBy3": {
      "cacheId": "cache3",
      "uid": "EWgYtm2ZLkRbhPyUiLN1PviE4Wg2",
      "comment": "i found it, and i took it.",
      "dateFound": "11/27/2017"
    }
  },
  "userBadges": {}
}